[
  {
    "name": "Hassan",
    "state": "Karnataka",
    "lat": 13.0072,
    "lon": 76.1004
  },
  {
    "name": "Mandya",
    "state": "Karnataka",
    "lat": 12.5218,
    "lon": 76.8951
  },
  {
    "name": "Tumkur",
    "state": "Karnataka",
    "lat": 13.3379,
    "lon": 77.1173
  },
  {
    "name": "Mysuru",
    "state": "Karnataka",
    "lat": 12.2958,
    "lon": 76.6394
  },
  {
    "name": "Bengaluru",
    "state": "Karnataka",
    "lat": 12.9716,
    "lon": 77.5946
  },
  {
    "name": "Mangaluru",
    "state": "Karnataka",
    "lat": 12.9141,
    "lon": 74.856
  },
  {
    "name": "Hubballi",
    "state": "Karnataka",
    "lat": 15.3647,
    "lon": 75.124
  },
  {
    "name": "Dharwad",
    "state": "Karnataka",
    "lat": 15.4589,
    "lon": 75.0078
  },
  {
    "name": "Belagavi",
    "state": "Karnataka",
    "lat": 15.8497,
    "lon": 74.4977
  },
  {
    "name": "Davangere",
    "state": "Karnataka",
    "lat": 14.4644,
    "lon": 75.9218
  },
  {
    "name": "Ballari",
    "state": "Karnataka",
    "lat": 15.1394,
    "lon": 76.9214
  },
  {
    "name": "Vijayapura",
    "state": "Karnataka",
    "lat": 16.8302,
    "lon": 75.71
  },
  {
    "name": "Shivamogga",
    "state": "Karnataka",
    "lat": 13.9299,
    "lon": 75.5681
  },
  {
    "name": "Raichur",
    "state": "Karnataka",
    "lat": 16.212,
    "lon": 77.3566
  },
  {
    "name": "Kalaburagi",
    "state": "Karnataka",
    "lat": 17.3297,
    "lon": 76.8343
  },
  {
    "name": "Bidar",
    "state": "Karnataka",
    "lat": 17.9104,
    "lon": 77.5199
  },
  {
    "name": "Udupi",
    "state": "Karnataka",
    "lat": 13.3409,
    "lon": 74.7421
  },
  {
    "name": "Chikkamagaluru",
    "state": "Karnataka",
    "lat": 13.3153,
    "lon": 75.7754
  },
  {
    "name": "Kolar",
    "state": "Karnataka",
    "lat": 13.1357,
    "lon": 78.1294
  },
  {
    "name": "Gadag",
    "state": "Karnataka",
    "lat": 15.4166,
    "lon": 75.6351
  },
  {
    "name": "Bagalkot",
    "state": "Karnataka",
    "lat": 16.1691,
    "lon": 75.6615
  },
  {
    "name": "Chitradurga",
    "state": "Karnataka",
    "lat": 14.2251,
    "lon": 76.398
  },
  {
    "name": "Koppal",
    "state": "Karnataka",
    "lat": 15.3508,
    "lon": 76.1546
  },
  {
    "name": "Yadgir",
    "state": "Karnataka",
    "lat": 16.77,
    "lon": 77.138
  },
  {
    "name": "Chamarajanagar",
    "state": "Karnataka",
    "lat": 11.9261,
    "lon": 76.9436
  },
  {
    "name": "Kodagu",
    "state": "Karnataka",
    "lat": 12.3375,
    "lon": 75.8069
  },
  {
    "name": "Haveri",
    "state": "Karnataka",
    "lat": 14.7939,
    "lon": 75.3996
  },
  {
    "name": "Mumbai",
    "state": "Maharashtra",
    "lat": 19.076,
    "lon": 72.8777
  },
  {
    "name": "Pune",
    "state": "Maharashtra",
    "lat": 18.5204,
    "lon": 73.8567
  },
  {
    "name": "Nagpur",
    "state": "Maharashtra",
    "lat": 21.1458,
    "lon": 79.0882
  },
  {
    "name": "Thane",
    "state": "Maharashtra",
    "lat": 19.2183,
    "lon": 72.9781
  },
  {
    "name": "Nashik",
    "state": "Maharashtra",
    "lat": 19.9975,
    "lon": 73.7898
  },
  {
    "name": "Aurangabad",
    "state": "Maharashtra",
    "lat": 19.8762,
    "lon": 75.3433
  },
  {
    "name": "Solapur",
    "state": "Maharashtra",
    "lat": 17.6599,
    "lon": 75.9064
  },
  {
    "name": "Kolhapur",
    "state": "Maharashtra",
    "lat": 16.705,
    "lon": 74.2433
  },
  {
    "name": "Amravati",
    "state": "Maharashtra",
    "lat": 20.9374,
    "lon": 77.7796
  },
  {
    "name": "Nanded",
    "state": "Maharashtra",
    "lat": 19.1383,
    "lon": 77.321
  },
  {
    "name": "Sangli",
    "state": "Maharashtra",
    "lat": 16.8524,
    "lon": 74.5815
  },
  {
    "name": "Satara",
    "state": "Maharashtra",
    "lat": 17.6805,
    "lon": 74.0183
  },
  {
    "name": "Latur",
    "state": "Maharashtra",
    "lat": 18.4088,
    "lon": 76.5604
  },
  {
    "name": "Ahmednagar",
    "state": "Maharashtra",
    "lat": 19.0952,
    "lon": 74.748
  },
  {
    "name": "Chandrapur",
    "state": "Maharashtra",
    "lat": 19.9615,
    "lon": 79.2961
  },
  {
    "name": "Jalgaon",
    "state": "Maharashtra",
    "lat": 21.0077,
    "lon": 75.5626
  },
  {
    "name": "Navi Mumbai",
    "state": "Maharashtra",
    "lat": 19.033,
    "lon": 73.0297
  },
  {
    "name": "Pimpri-Chinchwad",
    "state": "Maharashtra",
    "lat": 18.6279,
    "lon": 73.8009
  },
  {
    "name": "Kalyan",
    "state": "Maharashtra",
    "lat": 19.2437,
    "lon": 73.1355
  },
  {
    "name": "Vasai-Virar",
    "state": "Maharashtra",
    "lat": 19.4255,
    "lon": 72.8258
  },
  {
    "name": "Bhiwandi",
    "state": "Maharashtra",
    "lat": 19.3002,
    "lon": 73.0636
  },
  {
    "name": "Malegaon",
    "state": "Maharashtra",
    "lat": 20.5579,
    "lon": 74.5287
  },
  {
    "name": "Dhule",
    "state": "Maharashtra",
    "lat": 20.9042,
    "lon": 74.7749
  },
  {
    "name": "Akola",
    "state": "Maharashtra",
    "lat": 20.7069,
    "lon": 77.0002
  },
  {
    "name": "Yavatmal",
    "state": "Maharashtra",
    "lat": 20.3888,
    "lon": 78.1204
  },
  {
    "name": "Delhi",
    "state": "Delhi",
    "lat": 28.6139,
    "lon": 77.209
  },
  {
    "name": "New Delhi",
    "state": "Delhi",
    "lat": 28.6139,
    "lon": 77.209
  },
  {
    "name": "Gurgaon",
    "state": "Haryana",
    "lat": 28.4595,
    "lon": 77.0266
  },
  {
    "name": "Gurugram",
    "state": "Haryana",
    "lat": 28.4595,
    "lon": 77.0266
  },
  {
    "name": "Faridabad",
    "state": "Haryana",
    "lat": 28.4082,
    "lon": 77.3178
  },
  {
    "name": "Noida",
    "state": "Uttar Pradesh",
    "lat": 28.5355,
    "lon": 77.391
  },
  {
    "name": "Ghaziabad",
    "state": "Uttar Pradesh",
    "lat": 28.6692,
    "lon": 77.4538
  },
  {
    "name": "Greater Noida",
    "state": "Uttar Pradesh",
    "lat": 28.4744,
    "lon": 77.504
  },
  {
    "name": "Hyderabad",
    "state": "Telangana",
    "lat": 17.385,
    "lon": 78.4867
  },
  {
    "name": "Warangal",
    "state": "Telangana",
    "lat": 17.9689,
    "lon": 79.5941
  },
  {
    "name": "Nizamabad",
    "state": "Telangana",
    "lat": 18.6725,
    "lon": 78.0941
  },
  {
    "name": "Karimnagar",
    "state": "Telangana",
    "lat": 18.4386,
    "lon": 79.1288
  },
  {
    "name": "Khammam",
    "state": "Telangana",
    "lat": 17.2473,
    "lon": 80.1514
  },
  {
    "name": "Ramagundam",
    "state": "Telangana",
    "lat": 18.7539,
    "lon": 79.474
  },
  {
    "name": "Secunderabad",
    "state": "Telangana",
    "lat": 17.4399,
    "lon": 78.4983
  },
  {
    "name": "Chennai",
    "state": "Tamil Nadu",
    "lat": 13.0827,
    "lon": 80.2707
  },
  {
    "name": "Coimbatore",
    "state": "Tamil Nadu",
    "lat": 11.0168,
    "lon": 76.9558
  },
  {
    "name": "Madurai",
    "state": "Tamil Nadu",
    "lat": 9.9252,
    "lon": 78.1198
  },
  {
    "name": "Tiruchirappalli",
    "state": "Tamil Nadu",
    "lat": 10.7905,
    "lon": 78.7047
  },
  {
    "name": "Trichy",
    "state": "Tamil Nadu",
    "lat": 10.7905,
    "lon": 78.7047
  },
  {
    "name": "Salem",
    "state": "Tamil Nadu",
    "lat": 11.6643,
    "lon": 78.146
  },
  {
    "name": "Tirunelveli",
    "state": "Tamil Nadu",
    "lat": 8.7139,
    "lon": 77.7567
  },
  {
    "name": "Tiruppur",
    "state": "Tamil Nadu",
    "lat": 11.1085,
    "lon": 77.3411
  },
  {
    "name": "Vellore",
    "state": "Tamil Nadu",
    "lat": 12.9165,
    "lon": 79.1325
  },
  {
    "name": "Erode",
    "state": "Tamil Nadu",
    "lat": 11.341,
    "lon": 77.7172
  },
  {
    "name": "Thoothukkudi",
    "state": "Tamil Nadu",
    "lat": 8.7642,
    "lon": 78.1348
  },
  {
    "name": "Dindigul",
    "state": "Tamil Nadu",
    "lat": 10.3673,
    "lon": 77.9803
  },
  {
    "name": "Thanjavur",
    "state": "Tamil Nadu",
    "lat": 10.787,
    "lon": 79.1378
  },
  {
    "name": "Ranipet",
    "state": "Tamil Nadu",
    "lat": 12.931,
    "lon": 79.333
  },
  {
    "name": "Sivakasi",
    "state": "Tamil Nadu",
    "lat": 9.4533,
    "lon": 77.7986
  },
  {
    "name": "Hosur",
    "state": "Tamil Nadu",
    "lat": 12.7409,
    "lon": 77.8253
  },
  {
    "name": "Ooty",
    "state": "Tamil Nadu",
    "lat": 11.4102,
    "lon": 76.695
  },
  {
    "name": "Kanyakumari",
    "state": "Tamil Nadu",
    "lat": 8.0883,
    "lon": 77.5385
  },
  {
    "name": "Kolkata",
    "state": "West Bengal",
    "lat": 22.5726,
    "lon": 88.3639
  },
  {
    "name": "Asansol",
    "state": "West Bengal",
    "lat": 23.6739,
    "lon": 86.9524
  },
  {
    "name": "Siliguri",
    "state": "West Bengal",
    "lat": 26.7271,
    "lon": 88.6394
  },
  {
    "name": "Durgapur",
    "state": "West Bengal",
    "lat": 23.5204,
    "lon": 87.3119
  },
  {
    "name": "Bardhaman",
    "state": "West Bengal",
    "lat": 23.2324,
    "lon": 87.8615
  },
  {
    "name": "Howrah",
    "state": "West Bengal",
    "lat": 22.5958,
    "lon": 88.2636
  },
  {
    "name": "Darjeeling",
    "state": "West Bengal",
    "lat": 27.036,
    "lon": 88.2627
  },
  {
    "name": "Haldia",
    "state": "West Bengal",
    "lat": 22.0667,
    "lon": 88.0698
  },
  {
    "name": "Ahmedabad",
    "state": "Gujarat",
    "lat": 23.0225,
    "lon": 72.5714
  },
  {
    "name": "Surat",
    "state": "Gujarat",
    "lat": 21.1702,
    "lon": 72.8311
  },
  {
    "name": "Vadodara",
    "state": "Gujarat",
    "lat": 22.3072,
    "lon": 73.1812
  },
  {
    "name": "Rajkot",
    "state": "Gujarat",
    "lat": 22.3039,
    "lon": 70.8022
  },
  {
    "name": "Bhavnagar",
    "state": "Gujarat",
    "lat": 21.7645,
    "lon": 72.1519
  },
  {
    "name": "Jamnagar",
    "state": "Gujarat",
    "lat": 22.4707,
    "lon": 70.0577
  },
  {
    "name": "Junagadh",
    "state": "Gujarat",
    "lat": 21.5222,
    "lon": 70.4579
  },
  {
    "name": "Gandhinagar",
    "state": "Gujarat",
    "lat": 23.2156,
    "lon": 72.6369
  },
  {
    "name": "Anand",
    "state": "Gujarat",
    "lat": 22.5645,
    "lon": 72.9289
  },
  {
    "name": "Morbi",
    "state": "Gujarat",
    "lat": 22.8173,
    "lon": 70.8376
  },
  {
    "name": "Jaipur",
    "state": "Rajasthan",
    "lat": 26.9124,
    "lon": 75.7873
  },
  {
    "name": "Jodhpur",
    "state": "Rajasthan",
    "lat": 26.2389,
    "lon": 73.0243
  },
  {
    "name": "Kota",
    "state": "Rajasthan",
    "lat": 25.2138,
    "lon": 75.8648
  },
  {
    "name": "Bikaner",
    "state": "Rajasthan",
    "lat": 28.0229,
    "lon": 73.3119
  },
  {
    "name": "Ajmer",
    "state": "Rajasthan",
    "lat": 26.4499,
    "lon": 74.6399
  },
  {
    "name": "Udaipur",
    "state": "Rajasthan",
    "lat": 24.5854,
    "lon": 73.7125
  },
  {
    "name": "Alwar",
    "state": "Rajasthan",
    "lat": 27.553,
    "lon": 76.6346
  },
  {
    "name": "Bharatpur",
    "state": "Rajasthan",
    "lat": 27.2152,
    "lon": 77.493
  },
  {
    "name": "Pushkar",
    "state": "Rajasthan",
    "lat": 26.4897,
    "lon": 74.551
  },
  {
    "name": "Sikar",
    "state": "Rajasthan",
    "lat": 27.6094,
    "lon": 75.1399
  },
  {
    "name": "Pali",
    "state": "Rajasthan",
    "lat": 25.7711,
    "lon": 73.3234
  },
  {
    "name": "Lucknow",
    "state": "Uttar Pradesh",
    "lat": 26.8467,
    "lon": 80.9462
  },
  {
    "name": "Kanpur",
    "state": "Uttar Pradesh",
    "lat": 26.4499,
    "lon": 80.3319
  },
  {
    "name": "Agra",
    "state": "Uttar Pradesh",
    "lat": 27.1767,
    "lon": 78.0081
  },
  {
    "name": "Varanasi",
    "state": "Uttar Pradesh",
    "lat": 25.3176,
    "lon": 82.9739
  },
  {
    "name": "Allahabad",
    "state": "Uttar Pradesh",
    "lat": 25.4358,
    "lon": 81.8463
  },
  {
    "name": "Prayagraj",
    "state": "Uttar Pradesh",
    "lat": 25.4358,
    "lon": 81.8463
  },
  {
    "name": "Meerut",
    "state": "Uttar Pradesh",
    "lat": 28.9845,
    "lon": 77.7064
  },
  {
    "name": "Bareilly",
    "state": "Uttar Pradesh",
    "lat": 28.367,
    "lon": 79.4304
  },
  {
    "name": "Aligarh",
    "state": "Uttar Pradesh",
    "lat": 27.8974,
    "lon": 78.088
  },
  {
    "name": "Mathura",
    "state": "Uttar Pradesh",
    "lat": 27.4924,
    "lon": 77.6737
  },
  {
    "name": "Vrindavan",
    "state": "Uttar Pradesh",
    "lat": 27.5794,
    "lon": 77.7024
  },
  {
    "name": "Moradabad",
    "state": "Uttar Pradesh",
    "lat": 28.8386,
    "lon": 78.7733
  },
  {
    "name": "Muzaffarnagar",
    "state": "Uttar Pradesh",
    "lat": 29.4727,
    "lon": 77.7085
  },
  {
    "name": "Firozabad",
    "state": "Uttar Pradesh",
    "lat": 27.1592,
    "lon": 78.3957
  },
  {
    "name": "Gorakhpur",
    "state": "Uttar Pradesh",
    "lat": 26.7606,
    "lon": 83.3732
  },
  {
    "name": "Saharanpur",
    "state": "Uttar Pradesh",
    "lat": 29.968,
    "lon": 77.551
  },
  {
    "name": "Bhopal",
    "state": "Madhya Pradesh",
    "lat": 23.2599,
    "lon": 77.4126
  },
  {
    "name": "Indore",
    "state": "Madhya Pradesh",
    "lat": 22.7196,
    "lon": 75.8577
  },
  {
    "name": "Gwalior",
    "state": "Madhya Pradesh",
    "lat": 26.2183,
    "lon": 78.1828
  },
  {
    "name": "Jabalpur",
    "state": "Madhya Pradesh",
    "lat": 23.1815,
    "lon": 79.9864
  },
  {
    "name": "Ujjain",
    "state": "Madhya Pradesh",
    "lat": 23.1765,
    "lon": 75.7885
  },
  {
    "name": "Ratlam",
    "state": "Madhya Pradesh",
    "lat": 23.3339,
    "lon": 75.0367
  },
  {
    "name": "Sagar",
    "state": "Madhya Pradesh",
    "lat": 23.8388,
    "lon": 78.7378
  },
  {
    "name": "Dewas",
    "state": "Madhya Pradesh",
    "lat": 22.9623,
    "lon": 76.0508
  },
  {
    "name": "Satna",
    "state": "Madhya Pradesh",
    "lat": 24.5762,
    "lon": 80.8322
  },
  {
    "name": "Patna",
    "state": "Bihar",
    "lat": 25.5941,
    "lon": 85.1376
  },
  {
    "name": "Gaya",
    "state": "Bihar",
    "lat": 24.7955,
    "lon": 85.0002
  },
  {
    "name": "Bhagalpur",
    "state": "Bihar",
    "lat": 25.2425,
    "lon": 86.9842
  },
  {
    "name": "Muzaffarpur",
    "state": "Bihar",
    "lat": 26.1209,
    "lon": 85.3647
  },
  {
    "name": "Darbhanga",
    "state": "Bihar",
    "lat": 26.1542,
    "lon": 85.8918
  },
  {
    "name": "Purnia",
    "state": "Bihar",
    "lat": 25.7771,
    "lon": 87.4753
  },
  {
    "name": "Raipur",
    "state": "Chhattisgarh",
    "lat": 21.2514,
    "lon": 81.6296
  },
  {
    "name": "Bhilai",
    "state": "Chhattisgarh",
    "lat": 21.209,
    "lon": 81.4285
  },
  {
    "name": "Bilaspur",
    "state": "Chhattisgarh",
    "lat": 22.0796,
    "lon": 82.1391
  },
  {
    "name": "Korba",
    "state": "Chhattisgarh",
    "lat": 22.3595,
    "lon": 82.7501
  },
  {
    "name": "Durg",
    "state": "Chhattisgarh",
    "lat": 21.1904,
    "lon": 81.2849
  },
  {
    "name": "Ranchi",
    "state": "Jharkhand",
    "lat": 23.3441,
    "lon": 85.3096
  },
  {
    "name": "Jamshedpur",
    "state": "Jharkhand",
    "lat": 22.8046,
    "lon": 86.2029
  },
  {
    "name": "Dhanbad",
    "state": "Jharkhand",
    "lat": 23.7957,
    "lon": 86.4304
  },
  {
    "name": "Bokaro",
    "state": "Jharkhand",
    "lat": 23.6693,
    "lon": 86.1511
  },
  {
    "name": "Deoghar",
    "state": "Jharkhand",
    "lat": 24.4855,
    "lon": 86.6942
  },
  {
    "name": "Bhubaneswar",
    "state": "Odisha",
    "lat": 20.2961,
    "lon": 85.8245
  },
  {
    "name": "Cuttack",
    "state": "Odisha",
    "lat": 20.4625,
    "lon": 85.8828
  },
  {
    "name": "Rourkela",
    "state": "Odisha",
    "lat": 22.2604,
    "lon": 84.8536
  },
  {
    "name": "Berhampur",
    "state": "Odisha",
    "lat": 19.315,
    "lon": 84.7941
  },
  {
    "name": "Puri",
    "state": "Odisha",
    "lat": 19.8135,
    "lon": 85.8312
  },
  {
    "name": "Kochi",
    "state": "Kerala",
    "lat": 9.9312,
    "lon": 76.2673
  },
  {
    "name": "Thiruvananthapuram",
    "state": "Kerala",
    "lat": 8.5241,
    "lon": 76.9366
  },
  {
    "name": "Kozhikode",
    "state": "Kerala",
    "lat": 11.2588,
    "lon": 75.7804
  },
  {
    "name": "Thrissur",
    "state": "Kerala",
    "lat": 10.5276,
    "lon": 76.2144
  },
  {
    "name": "Kollam",
    "state": "Kerala",
    "lat": 8.8932,
    "lon": 76.6141
  },
  {
    "name": "Kannur",
    "state": "Kerala",
    "lat": 11.8745,
    "lon": 75.3704
  },
  {
    "name": "Palakkad",
    "state": "Kerala",
    "lat": 10.7867,
    "lon": 76.6548
  },
  {
    "name": "Alappuzha",
    "state": "Kerala",
    "lat": 9.4981,
    "lon": 76.3388
  },
  {
    "name": "Malappuram",
    "state": "Kerala",
    "lat": 11.051,
    "lon": 76.0711
  },
  {
    "name": "Kottayam",
    "state": "Kerala",
    "lat": 9.5916,
    "lon": 76.5222
  },
  {
    "name": "Munnar",
    "state": "Kerala",
    "lat": 10.0889,
    "lon": 77.0595
  },
  {
    "name": "Wayanad",
    "state": "Kerala",
    "lat": 11.6854,
    "lon": 76.132
  },
  {
    "name": "Chandigarh",
    "state": "Chandigarh",
    "lat": 30.7333,
    "lon": 76.7794
  },
  {
    "name": "Ludhiana",
    "state": "Punjab",
    "lat": 30.901,
    "lon": 75.8573
  },
  {
    "name": "Amritsar",
    "state": "Punjab",
    "lat": 31.634,
    "lon": 74.8723
  },
  {
    "name": "Jalandhar",
    "state": "Punjab",
    "lat": 31.326,
    "lon": 75.5762
  },
  {
    "name": "Patiala",
    "state": "Punjab",
    "lat": 30.3398,
    "lon": 76.3869
  },
  {
    "name": "Bathinda",
    "state": "Punjab",
    "lat": 30.211,
    "lon": 74.9455
  },
  {
    "name": "Mohali",
    "state": "Punjab",
    "lat": 30.7046,
    "lon": 76.7179
  },
  {
    "name": "Pathankot",
    "state": "Punjab",
    "lat": 32.2643,
    "lon": 75.6421
  },
  {
    "name": "Dehradun",
    "state": "Uttarakhand",
    "lat": 30.3165,
    "lon": 78.0322
  },
  {
    "name": "Haridwar",
    "state": "Uttarakhand",
    "lat": 29.9457,
    "lon": 78.1642
  },
  {
    "name": "Rishikesh",
    "state": "Uttarakhand",
    "lat": 30.0869,
    "lon": 78.2676
  },
  {
    "name": "Roorkee",
    "state": "Uttarakhand",
    "lat": 29.8543,
    "lon": 77.888
  },
  {
    "name": "Haldwani",
    "state": "Uttarakhand",
    "lat": 29.2183,
    "lon": 79.513
  },
  {
    "name": "Shimla",
    "state": "Himachal Pradesh",
    "lat": 31.1048,
    "lon": 77.1734
  },
  {
    "name": "Manali",
    "state": "Himachal Pradesh",
    "lat": 32.2396,
    "lon": 77.1887
  },
  {
    "name": "Dharamsala",
    "state": "Himachal Pradesh",
    "lat": 32.219,
    "lon": 76.3234
  },
  {
    "name": "Jammu",
    "state": "J&K",
    "lat": 32.7266,
    "lon": 74.857
  },
  {
    "name": "Srinagar",
    "state": "J&K",
    "lat": 34.0837,
    "lon": 74.7973
  },
  {
    "name": "Panaji",
    "state": "Goa",
    "lat": 15.4909,
    "lon": 73.8278
  },
  {
    "name": "Margao",
    "state": "Goa",
    "lat": 15.2832,
    "lon": 73.9862
  },
  {
    "name": "Vasco da Gama",
    "state": "Goa",
    "lat": 15.3982,
    "lon": 73.8113
  },
  {
    "name": "Agartala",
    "state": "Tripura",
    "lat": 23.8315,
    "lon": 91.2868
  },
  {
    "name": "Guwahati",
    "state": "Assam",
    "lat": 26.1445,
    "lon": 91.7362
  },
  {
    "name": "Dibrugarh",
    "state": "Assam",
    "lat": 27.4728,
    "lon": 94.912
  },
  {
    "name": "Imphal",
    "state": "Manipur",
    "lat": 24.817,
    "lon": 93.9368
  },
  {
    "name": "Shillong",
    "state": "Meghalaya",
    "lat": 25.5788,
    "lon": 91.8933
  },
  {
    "name": "Kohima",
    "state": "Nagaland",
    "lat": 25.6751,
    "lon": 94.1086
  },
  {
    "name": "Aizawl",
    "state": "Mizoram",
    "lat": 23.7307,
    "lon": 92.7173
  },
  {
    "name": "Gangtok",
    "state": "Sikkim",
    "lat": 27.3314,
    "lon": 88.6138
  },
  {
    "name": "Itanagar",
    "state": "Arunachal Pradesh",
    "lat": 27.0844,
    "lon": 93.6053
  },
  {
    "name": "Visakhapatnam",
    "state": "Andhra Pradesh",
    "lat": 17.6868,
    "lon": 83.2185
  },
  {
    "name": "Vijayawada",
    "state": "Andhra Pradesh",
    "lat": 16.5062,
    "lon": 80.648
  },
  {
    "name": "Guntur",
    "state": "Andhra Pradesh",
    "lat": 16.3067,
    "lon": 80.4365
  },
  {
    "name": "Tirupati",
    "state": "Andhra Pradesh",
    "lat": 13.6288,
    "lon": 79.4192
  },
  {
    "name": "Nellore",
    "state": "Andhra Pradesh",
    "lat": 14.4426,
    "lon": 79.9865
  },
  {
    "name": "Kurnool",
    "state": "Andhra Pradesh",
    "lat": 15.8281,
    "lon": 78.0373
  },
  {
    "name": "Kakinada",
    "state": "Andhra Pradesh",
    "lat": 16.9891,
    "lon": 82.2475
  },
  {
    "name": "Rajahmundry",
    "state": "Andhra Pradesh",
    "lat": 17.0005,
    "lon": 81.804
  },
  {
    "name": "Anantapur",
    "state": "Andhra Pradesh",
    "lat": 14.6819,
    "lon": 77.5988
  },
  {
    "name": "Amaravati",
    "state": "Andhra Pradesh",
    "lat": 16.513,
    "lon": 80.5173
  },
  {
    "name": "Gurugram",
    "state": "Haryana",
    "lat": 28.4595,
    "lon": 77.0266
  },
  {
    "name": "Faridabad",
    "state": "Haryana",
    "lat": 28.4089,
    "lon": 77.3178
  },
  {
    "name": "Panipat",
    "state": "Haryana",
    "lat": 29.3909,
    "lon": 76.9635
  },
  {
    "name": "Ambala",
    "state": "Haryana",
    "lat": 30.3782,
    "lon": 76.7767
  },
  {
    "name": "Rohtak",
    "state": "Haryana",
    "lat": 28.8955,
    "lon": 76.6066
  },
  {
    "name": "Hisar",
    "state": "Haryana",
    "lat": 29.1492,
    "lon": 75.7217
  },
  {
    "name": "Karnal",
    "state": "Haryana",
    "lat": 29.6857,
    "lon": 76.9905
  },
  {
    "name": "Sonipat",
    "state": "Haryana",
    "lat": 28.9288,
    "lon": 77.0148
  },
  {
    "name": "Yamunanagar",
    "state": "Haryana",
    "lat": 30.129,
    "lon": 77.2674
  },
  {
    "name": "Panchkula",
    "state": "Haryana",
    "lat": 30.6942,
    "lon": 76.8606
  },
  {
    "name": "Leh",
    "state": "Ladakh",
    "lat": 34.1526,
    "lon": 77.5771
  },
  {
    "name": "Kargil",
    "state": "Ladakh",
    "lat": 34.5539,
    "lon": 76.1349
  },
  {
    "name": "Port Blair",
    "state": "Andaman & Nicobar",
    "lat": 11.6234,
    "lon": 92.7265
  },
  {
    "name": "Silvassa",
    "state": "Dadra & Nagar Haveli",
    "lat": 20.2766,
    "lon": 73.0169
  },
  {
    "name": "Daman",
    "state": "Daman & Diu",
    "lat": 20.3974,
    "lon": 72.8328
  },
  {
    "name": "Kavaratti",
    "state": "Lakshadweep",
    "lat": 10.5626,
    "lon": 72.6369
  },
  {
    "name": "Puducherry",
    "state": "Puducherry",
    "lat": 11.9416,
    "lon": 79.8083
  },
  {
    "name": "Nalgonda",
    "state": "Telangana",
    "lat": 17.0575,
    "lon": 79.2668
  },
  {
    "name": "Siddipet",
    "state": "Telangana",
    "lat": 18.1027,
    "lon": 78.8518
  },
  {
    "name": "Medak",
    "state": "Telangana",
    "lat": 18.0447,
    "lon": 78.2614
  },
  {
    "name": "Adilabad",
    "state": "Telangana",
    "lat": 19.664,
    "lon": 78.532
  },
  {
    "name": "Mahabubnagar",
    "state": "Telangana",
    "lat": 16.7376,
    "lon": 77.9864
  }
]